$GPGGA,125227,4931.7924,S,07242.9195,W,2,11,0.7,259.1,M,12.4,M,,*40,
$GPGGA,125229,4931.7951,S,07242.9203,W,2,11,0.7,259.1,M,12.4,M,,*40,
$GPGGA,125231,4931.7971,S,07242.9208,W,2,11,0.7,259.1,M,12.4,M,,*40,
$GPGGA,125233,4931.8004,S,07242.9219,W,2,11,0.7,259.0,M,12.4,M,,*47,
$GPGGA,125235,4931.8032,S,07242.9225,W,2,11,0.7,259.2,M,12.4,M,,*49,
$GPGGA,125237,4931.8059,S,07242.9230,W,2,11,0.7,259.3,M,12.4,M,,*43,
$GPGGA,125239,4931.8087,S,07242.9235,W,2,11,0.7,259.2,M,12.4,M,,*4A,
$GPGGA,125241,4931.8115,S,07242.9239,W,2,11,0.7,259.2,M,12.4,M,,*43,
$GPGGA,125243,4931.8142,S,07242.9240,W,2,11,0.7,259.3,M,12.4,M,,*4C,
$GPGGA,125245,4931.8169,S,07242.9241,W,2,11,0.7,259.2,M,12.4,M,,*43,
$GPGGA,125247,4931.8197,S,07242.9241,W,2,11,0.7,259.0,M,12.4,M,,*42,
$GPGGA,125249,4931.8217,S,07242.9240,W,2,11,0.7,258.9,M,12.4,M,,*4E,
$GPGGA,125251,4931.8250,S,07242.9241,W,2,11,0.7,258.8,M,12.4,M,,*44,
$GPGGA,125253,4931.8278,S,07242.9243,W,2,11,0.7,258.6,M,12.4,M,,*40,
$GPGGA,125255,4931.8299,S,07242.9242,W,2,11,0.7,258.6,M,12.4,M,,*48,
$GPGGA,125300,4931.8373,S,07242.9247,W,2,11,0.7,258.6,M,12.4,M,,*49,
$GPGGA,125303,4931.8413,S,07242.9258,W,2,11,0.7,258.9,M,12.4,M,,*4A,
$GPGGA,125305,4931.8433,S,07242.9263,W,2,11,0.7,258.9,M,12.4,M,,*46,
$GPGGA,125309,4931.8493,S,07242.9280,W,2,11,0.7,258.6,M,12.4,M,,*42,
$GPGGA,125311,4931.8520,S,07242.9287,W,2,11,0.7,258.6,M,12.4,M,,*45,
$GPGGA,125313,4931.8547,S,07242.9298,W,2,11,0.7,258.7,M,12.4,M,,*49,
$GPGGA,125315,4931.8575,S,07242.9305,W,2,11,0.7,258.7,M,12.4,M,,*4B,
$GPGGA,125317,4931.8602,S,07242.9313,W,2,11,0.7,258.7,M,12.4,M,,*4D,
$GPGGA,125319,4931.8629,S,07242.9320,W,2,11,0.7,258.7,M,12.4,M,,*4A,
$GPGGA,125321,4931.8649,S,07242.9325,W,2,11,0.7,258.8,M,12.4,M,,*4D,
$GPGGA,125323,4931.8682,S,07242.9334,W,2,11,0.7,258.9,M,12.4,M,,*49,
$GPGGA,125325,4931.8702,S,07242.9340,W,2,11,0.7,258.9,M,12.4,M,,*45,
$GPGGA,125327,4931.8735,S,07242.9356,W,1,11,0.7,258.7,M,12.4,M,,*49,
$GPGGA,125329,4931.8755,S,07242.9365,W,1,11,0.7,258.8,M,12.4,M,,*4E,
$GPGGA,125331,4931.8781,S,07242.9376,W,1,11,0.7,258.7,M,12.4,M,,*43,
$GPGGA,125333,4931.8814,S,07242.9389,W,1,11,0.7,258.8,M,12.4,M,,*4D,
$GPGGA,125335,4931.8841,S,07242.9398,W,1,11,0.7,258.8,M,12.4,M,,*4B,
$GPGGA,125337,4931.8867,S,07242.9407,W,1,11,0.7,258.7,M,12.4,M,,*43,
$GPGGA,125339,4931.8895,S,07242.9418,W,1,11,0.7,258.7,M,12.4,M,,*4E,
$GPGGA,125341,4931.8923,S,07242.9425,W,1,11,0.7,258.7,M,12.4,M,,*43,
$GPGGA,125343,4931.8949,S,07242.9435,W,1,11,0.7,258.9,M,12.4,M,,*42,
$GPGGA,125345,4931.8969,S,07242.9443,W,1,11,0.7,259.0,M,12.4,M,,*4F,
$GPGGA,125347,4931.9002,S,07242.9457,W,1,11,0.7,258.8,M,12.4,M,,*44,
$GPGGA,125349,4931.9029,S,07242.9466,W,1,11,0.7,258.9,M,12.4,M,,*40,
$GPGGA,125351,4931.9056,S,07242.9474,W,1,11,0.7,258.7,M,12.4,M,,*4C,
$GPGGA,125353,4931.9083,S,07242.9479,W,1,11,0.7,258.7,M,12.4,M,,*4B,
$GPGGA,125355,4931.9110,S,07242.9483,W,1,11,0.7,258.5,M,12.4,M,,*41,
$GPGGA,125357,4931.9138,S,07242.9488,W,1,11,0.7,258.3,M,12.4,M,,*44,
$GPGGA,125359,4931.9165,S,07242.9492,W,1,11,0.7,258.3,M,12.4,M,,*49,
$GPGGA,125401,4931.9193,S,07242.9498,W,1,11,0.7,258.2,M,12.4,M,,*41,
$GPGGA,125403,4931.9220,S,07242.9505,W,1,11,0.7,258.3,M,12.4,M,,*4C,
$GPGGA,125405,4931.9247,S,07242.9509,W,1,11,0.7,258.2,M,12.4,M,,*46,
$GPGGA,125407,4931.9267,S,07242.9515,W,1,11,0.7,258.2,M,12.4,M,,*4B,
$GPGGA,125409,4931.9300,S,07242.9524,W,1,11,0.7,258.2,M,12.4,M,,*47,
$GPGGA,125411,4931.9327,S,07242.9532,W,1,11,0.7,258.1,M,12.4,M,,*4F,
$GPGGA,125413,4931.9355,S,07242.9541,W,1,11,0.7,258.1,M,12.4,M,,*4C,
$GPGGA,125415,4931.9382,S,07242.9551,W,1,11,0.7,258.0,M,12.4,M,,*40,
$GPGGA,125417,4931.9409,S,07242.9560,W,1,11,0.7,258.1,M,12.4,M,,*45,
$GPGGA,125419,4931.9436,S,07242.9570,W,1,11,0.7,258.1,M,12.4,M,,*46,
$GPGGA,125421,4931.9463,S,07242.9581,W,1,11,0.7,258.3,M,12.4,M,,*41,
$GPGGA,125423,4931.9490,S,07242.9591,W,1,11,0.7,258.3,M,12.4,M,,*4E,
$GPGGA,125425,4931.9517,S,07242.9600,W,1,11,0.7,258.4,M,12.4,M,,*4A,
$GPGGA,125427,4931.9544,S,07242.9609,W,1,11,0.7,258.5,M,12.4,M,,*46,
$GPGGA,125429,4931.9564,S,07242.9616,W,1,11,0.7,258.4,M,12.4,M,,*45,
$GPGGA,125431,4931.9598,S,07242.9627,W,1,11,0.7,258.6,M,12.4,M,,*4F,
$GPGGA,125433,4931.9625,S,07242.9634,W,1,11,0.7,258.6,M,12.4,M,,*4A,
$GPGGA,125435,4931.9652,S,07242.9641,W,1,11,0.7,258.8,M,12.4,M,,*40,
$GPGGA,125437,4931.9679,S,07242.9651,W,1,11,0.7,258.8,M,12.4,M,,*4A,
$GPGGA,125439,4931.9705,S,07242.9658,W,1,11,0.7,258.8,M,12.4,M,,*47,
$GPGGA,125441,4931.9732,S,07242.9667,W,1,11,0.7,258.7,M,12.4,M,,*4F,
$GPGGA,125443,4931.9760,S,07242.9674,W,1,11,0.7,258.7,M,12.4,M,,*48,
$GPGGA,125445,4931.9787,S,07242.9682,W,1,11,0.7,258.7,M,12.4,M,,*4E,
$GPGGA,125447,4931.9815,S,07242.9689,W,1,11,0.7,258.8,M,12.4,M,,*4C,
$GPGGA,125449,4931.9842,S,07242.9695,W,1,11,0.7,258.8,M,12.4,M,,*4D,
$GPGGA,125451,4931.9870,S,07242.9700,W,1,11,0.7,258.8,M,12.4,M,,*48,
$GPGGA,125453,4931.9897,S,07242.9704,W,1,11,0.7,258.9,M,12.4,M,,*46,
$GPGGA,125455,4931.9923,S,07242.9712,W,1,11,0.7,258.7,M,12.4,M,,*47,
$GPGGA,125457,4931.9950,S,07242.9719,W,1,11,0.7,258.6,M,12.4,M,,*4B,
$GPGGA,125459,4931.9978,S,07242.9726,W,1,11,0.7,258.7,M,12.4,M,,*42,
$GPGGA,125501,4932.0004,S,07242.9735,W,1,11,0.7,258.7,M,12.4,M,,*44,
$GPGGA,125503,4932.0031,S,07242.9743,W,1,11,0.7,258.6,M,12.4,M,,*40,
$GPGGA,125505,4932.0051,S,07242.9749,W,1,11,0.7,258.5,M,12.4,M,,*49,
$GPGGA,125507,4932.0083,S,07242.9761,W,1,11,0.7,258.4,M,12.4,M,,*4F,
$GPGGA,125509,4932.0104,S,07242.9766,W,1,11,0.7,258.3,M,12.4,M,,*4F,
$GPGGA,125511,4932.0137,S,07242.9775,W,1,11,0.7,258.3,M,12.4,M,,*44,
$GPGGA,125513,4932.0163,S,07242.9787,W,1,11,0.7,258.2,M,12.4,M,,*4B,
$GPGGA,125515,4932.0190,S,07242.9797,W,1,11,0.7,258.3,M,12.4,M,,*41,
$GPGGA,125517,4932.0217,S,07242.9808,W,1,11,0.7,258.4,M,12.4,M,,*41,
$GPGGA,125519,4932.0243,S,07242.9819,W,1,11,0.7,258.3,M,12.4,M,,*49,
$GPGGA,125521,4932.0269,S,07242.9832,W,1,11,0.7,258.2,M,12.4,M,,*42,
$GPGGA,125523,4932.0295,S,07242.9846,W,1,11,0.7,258.2,M,12.4,M,,*40,
$GPGGA,125525,4932.0322,S,07242.9858,W,1,11,0.7,258.4,M,12.4,M,,*42,
$GPGGA,125527,4932.0342,S,07242.9866,W,1,11,0.7,258.5,M,12.4,M,,*4A,
$GPGGA,125529,4932.0374,S,07242.9883,W,1,11,0.7,258.4,M,12.4,M,,*4B,
$GPGGA,125531,4932.0393,S,07242.9892,W,1,11,0.7,258.5,M,12.4,M,,*4A,
$GPGGA,125533,4932.0425,S,07242.9910,W,1,11,0.7,258.5,M,12.4,M,,*49,
$GPGGA,125535,4932.0452,S,07242.9924,W,1,11,0.7,258.4,M,12.4,M,,*49,
$GPGGA,125537,4932.0479,S,07242.9934,W,1,11,0.7,258.6,M,12.4,M,,*41,
$GPGGA,125539,4932.0507,S,07242.9941,W,1,11,0.7,258.6,M,12.4,M,,*45,
$GPGGA,125541,4932.0535,S,07242.9948,W,1,11,0.7,258.6,M,12.4,M,,*42,
$GPGGA,125543,4932.0563,S,07242.9954,W,1,11,0.7,258.6,M,12.4,M,,*4E,
$GPGGA,125545,4932.0591,S,07242.9956,W,1,11,0.7,258.5,M,12.4,M,,*44,
$GPGGA,125547,4932.0611,S,07242.9958,W,1,11,0.7,258.6,M,12.4,M,,*40,
$GPGGA,125549,4932.0646,S,07242.9959,W,1,11,0.7,258.5,M,12.4,M,,*4E,
$GPGGA,125551,4932.0674,S,07242.9957,W,1,11,0.7,258.4,M,12.4,M,,*49,
$GPGGA,125553,4932.0702,S,07242.9955,W,1,11,0.7,258.6,M,12.4,M,,*4B,
$GPGGA,125555,4932.0729,S,07242.9962,W,1,11,0.7,258.6,M,12.4,M,,*40,
$GPGGA,125557,4932.0757,S,07242.9967,W,1,11,0.7,258.5,M,12.4,M,,*4D,
$GPGGA,125559,4932.0785,S,07242.9975,W,1,11,0.7,258.3,M,12.4,M,,*49,
$GPGGA,125601,4932.0812,S,07242.9986,W,1,11,0.7,258.5,M,12.4,M,,*4C,
$GPGGA,125603,4932.0832,S,07242.9995,W,1,11,0.7,258.6,M,12.4,M,,*4D,
$GPGGA,125605,4932.0866,S,07243.0007,W,1,11,0.7,258.5,M,12.4,M,,*43,
$GPGGA,125607,4932.0892,S,07243.0017,W,1,11,0.7,258.5,M,12.4,M,,*4B,
$GPGGA,125609,4932.0919,S,07243.0029,W,1,11,0.7,258.5,M,12.4,M,,*4A,
$GPGGA,125611,4932.0946,S,07243.0040,W,1,11,0.7,258.4,M,12.4,M,,*47,
$GPGGA,125613,4932.0973,S,07243.0050,W,1,11,0.7,258.4,M,12.4,M,,*42,
$GPGGA,125615,4932.1000,S,07243.0057,W,1,10,0.8,258.5,M,12.4,M,,*40,
$GPGGA,125617,4932.1027,S,07243.0063,W,1,10,0.8,258.4,M,12.4,M,,*41,
$GPGGA,125619,4932.1055,S,07243.0068,W,1,10,0.8,258.4,M,12.4,M,,*41,
$GPGGA,125621,4932.1083,S,07243.0072,W,1,10,0.8,258.5,M,12.4,M,,*4B,
$GPGGA,125623,4932.1111,S,07243.0074,W,1,10,0.8,258.6,M,12.4,M,,*46,
$GPGGA,125625,4932.1139,S,07243.0075,W,1,10,0.8,258.6,M,12.4,M,,*4B,
$GPGGA,125627,4932.1166,S,07243.0074,W,1,10,0.8,258.6,M,12.4,M,,*42,
$GPGGA,125629,4932.1194,S,07243.0073,W,1,10,0.8,258.5,M,12.4,M,,*45,
$GPGGA,125631,4932.1222,S,07243.0072,W,1,10,0.8,258.4,M,12.4,M,,*42,
$GPGGA,125633,4932.1250,S,07243.0071,W,1,10,0.8,258.5,M,12.4,M,,*47,
$GPGGA,125635,4932.1277,S,07243.0068,W,1,10,0.8,258.5,M,12.4,M,,*4C,
$GPGGA,125637,4932.1305,S,07243.0067,W,1,10,0.8,258.6,M,12.4,M,,*46,
$GPGGA,125639,4932.1332,S,07243.0069,W,1,10,0.8,258.7,M,12.4,M,,*43,
$GPGGA,125641,4932.1360,S,07243.0073,W,1,10,0.8,258.6,M,12.4,M,,*41,
$GPGGA,125643,4932.1389,S,07243.0075,W,1,10,0.8,258.4,M,12.4,M,,*40,
$GPGGA,125645,4932.1410,S,07243.0078,W,1,10,0.8,258.5,M,12.4,M,,*4D,
$GPGGA,125647,4932.1445,S,07243.0087,W,1,10,0.8,258.4,M,12.4,M,,*4E,
$GPGGA,125649,4932.1472,S,07243.0095,W,1,10,0.8,258.4,M,12.4,M,,*47,
$GPGGA,125651,4932.1499,S,07243.0104,W,1,10,0.8,258.4,M,12.4,M,,*42,
$GPGGA,125653,4932.1525,S,07243.0113,W,1,10,0.8,258.5,M,12.4,M,,*41,
$GPGGA,125655,4932.1552,S,07243.0125,W,1,10,0.8,258.4,M,12.4,M,,*43,
$GPGGA,125657,4932.1578,S,07243.0135,W,1,10,0.8,258.7,M,12.4,M,,*4B,
$GPGGA,125659,4932.1605,S,07243.0142,W,1,10,0.8,258.6,M,12.4,M,,*4D,
$GPGGA,125701,4932.1625,S,07243.0149,W,1,10,0.8,258.5,M,12.4,M,,*4B,
$GPGGA,125703,4932.1660,S,07243.0160,W,1,10,0.8,258.5,M,12.4,M,,*43,
$GPGGA,125705,4932.1687,S,07243.0168,W,1,10,0.8,258.4,M,12.4,M,,*45,
$GPGGA,125707,4932.1714,S,07243.0178,W,1,10,0.8,258.3,M,12.4,M,,*4A,
$GPGGA,125709,4932.1741,S,07243.0190,W,1,10,0.8,258.2,M,12.4,M,,*43,
$GPGGA,125711,4932.1768,S,07243.0197,W,1,10,0.8,258.2,M,12.4,M,,*46,
$GPGGA,125713,4932.1795,S,07243.0204,W,1,10,0.8,258.2,M,12.4,M,,*4F,
$GPGGA,125715,4932.1823,S,07243.0209,W,1,10,0.8,258.1,M,12.4,M,,*45,
$GPGGA,125717,4932.1851,S,07243.0215,W,1,10,0.8,258.0,M,12.4,M,,*4E,
$GPGGA,125719,4932.1879,S,07243.0220,W,1,10,0.8,258.0,M,12.4,M,,*4C,
$GPGGA,125721,4932.1906,S,07243.0225,W,1,10,0.8,258.1,M,12.4,M,,*4A,
$GPGGA,125723,4932.1935,S,07243.0227,W,1,10,0.8,258.2,M,12.4,M,,*49,
$GPGGA,125725,4932.1963,S,07243.0228,W,1,10,0.8,258.1,M,12.4,M,,*40,
$GPGGA,125727,4932.1990,S,07243.0228,W,1,10,0.8,258.1,M,12.4,M,,*4E,
$GPGGA,125729,4932.2017,S,07243.0233,W,1,10,0.8,258.2,M,12.4,M,,*4C,
$GPGGA,125731,4932.2045,S,07243.0236,W,1,10,0.8,258.2,M,12.4,M,,*47,
$GPGGA,125733,4932.2072,S,07243.0240,W,1,10,0.8,258.3,M,12.4,M,,*41,
$GPGGA,125735,4932.2100,S,07243.0247,W,1,10,0.8,258.6,M,12.4,M,,*41,
$GPGGA,125737,4932.2127,S,07243.0252,W,1,10,0.8,258.5,M,12.4,M,,*41,
$GPGGA,125739,4932.2154,S,07243.0256,W,1,10,0.8,258.3,M,12.4,M,,*49,
$GPGGA,125741,4932.2182,S,07243.0262,W,1,10,0.8,258.4,M,12.4,M,,*4D,
$GPGGA,125743,4932.2209,S,07243.0269,W,1,10,0.8,258.4,M,12.4,M,,*44,
$GPGGA,125745,4932.2237,S,07243.0276,W,1,10,0.8,258.4,M,12.4,M,,*41,
$GPGGA,125747,4932.2264,S,07243.0285,W,1,10,0.8,258.4,M,12.4,M,,*49,
$GPGGA,125749,4932.2292,S,07243.0291,W,1,10,0.8,258.5,M,12.4,M,,*4A,
$GPGGA,125751,4932.2319,S,07243.0297,W,1,10,0.8,258.3,M,12.4,M,,*41,
$GPGGA,125753,4932.2347,S,07243.0303,W,1,10,0.8,258.3,M,12.4,M,,*44,
$GPGGA,125755,4932.2374,S,07243.0309,W,1,10,0.8,258.3,M,12.4,M,,*48,
$GPGGA,125757,4932.2401,S,07243.0314,W,1,10,0.8,258.2,M,12.4,M,,*42,
$GPGGA,125759,4932.2429,S,07243.0319,W,1,10,0.8,258.5,M,12.4,M,,*4C,
$GPGGA,125801,4932.2457,S,07243.0325,W,1,10,0.8,258.4,M,12.4,M,,*49,
$GPGGA,125803,4932.2484,S,07243.0334,W,1,10,0.8,258.6,M,12.4,M,,*47,
$GPGGA,125805,4932.2510,S,07243.0345,W,1,10,0.8,258.7,M,12.4,M,,*4A,
$GPGGA,125807,4932.2537,S,07243.0358,W,1,10,0.8,258.6,M,12.4,M,,*40,
$GPGGA,125809,4932.2565,S,07243.0367,W,1,10,0.8,258.6,M,12.4,M,,*45,
$GPGGA,125811,4932.2591,S,07243.0375,W,1,10,0.8,258.5,M,12.4,M,,*47,
$GPGGA,125813,4932.2618,S,07243.0382,W,1,10,0.8,258.3,M,12.4,M,,*49,
$GPGGA,125815,4932.2646,S,07243.0390,W,1,10,0.8,258.3,M,12.4,M,,*47,
$GPGGA,125817,4932.2667,S,07243.0392,W,1,10,0.8,258.4,M,12.4,M,,*43,
$GPGGA,125819,4932.2702,S,07243.0396,W,1,10,0.8,258.5,M,12.4,M,,*4A,
$GPGGA,125821,4932.2729,S,07243.0402,W,1,10,0.8,258.5,M,12.4,M,,*42,
$GPGGA,125823,4932.2750,S,07243.0403,W,1,10,0.8,258.3,M,12.4,M,,*49,
$GPGGA,125825,4932.2784,S,07243.0406,W,1,10,0.8,258.1,M,12.4,M,,*41,
$GPGGA,125827,4932.2805,S,07243.0408,W,1,10,0.8,258.1,M,12.4,M,,*4B,
$GPGGA,125829,4932.2838,S,07243.0409,W,1,10,0.8,258.0,M,12.4,M,,*4B,
$GPGGA,125831,4932.2859,S,07243.0408,W,1,10,0.8,257.7,M,12.4,M,,*4C,
$GPGGA,125833,4932.2894,S,07243.0406,W,1,10,0.8,257.7,M,12.4,M,,*41,
$GPGGA,125835,4932.2914,S,07243.0406,W,1,10,0.8,257.7,M,12.4,M,,*4E,
$GPGGA,125837,4932.2949,S,07243.0407,W,1,10,0.8,257.9,M,12.4,M,,*4B,
$GPGGA,125839,4932.2976,S,07243.0412,W,1,10,0.8,257.9,M,12.4,M,,*4D,
$GPGGA,125841,4932.3002,S,07243.0417,W,1,10,0.8,257.9,M,12.4,M,,*4C,
$GPGGA,125843,4932.3030,S,07243.0422,W,1,10,0.8,257.9,M,12.4,M,,*49,
$GPGGA,125845,4932.3058,S,07243.0428,W,1,10,0.8,257.8,M,12.4,M,,*4A,
$GPGGA,125847,4932.3086,S,07243.0433,W,1,10,0.8,257.9,M,12.4,M,,*40,
$GPGGA,125849,4932.3113,S,07243.0439,W,1,10,0.8,258.0,M,12.4,M,,*4F,
$GPGGA,125851,4932.3139,S,07243.0445,W,1,10,0.8,257.9,M,12.4,M,,*43,
$GPGGA,125853,4932.3168,S,07243.0447,W,1,10,0.8,257.9,M,12.4,M,,*47,
$GPGGA,125855,4932.3196,S,07243.0445,W,1,10,0.8,258.1,M,12.4,M,,*45,
$GPGGA,125857,4932.3224,S,07243.0442,W,1,10,0.8,258.1,M,12.4,M,,*4A,
$GPGGA,125859,4932.3252,S,07243.0437,W,1,10,0.8,258.1,M,12.4,M,,*47,
$GPGGA,125901,4932.3279,S,07243.0430,W,1,10,0.8,257.9,M,12.4,M,,*42,
$GPGGA,125903,4932.3305,S,07243.0424,W,1,10,0.8,258.0,M,12.4,M,,*49,
$GPGGA,125905,4932.3333,S,07243.0422,W,1,10,0.8,257.9,M,12.4,M,,*4A,
$GPGGA,125907,4932.3360,S,07243.0423,W,1,10,0.8,258.0,M,12.4,M,,*49,
$GPGGA,125909,4932.3380,S,07243.0426,W,1,10,0.8,258.0,M,12.4,M,,*4C,
$GPGGA,125911,4932.3414,S,07243.0433,W,1,10,0.8,257.9,M,12.4,M,,*4D,
$GPGGA,125913,4932.3443,S,07243.0437,W,1,10,0.8,258.1,M,12.4,M,,*4E,
$GPGGA,125915,4932.3470,S,07243.0438,W,1,10,0.8,258.3,M,12.4,M,,*45,
$GPGGA,125917,4932.3497,S,07243.0444,W,1,10,0.8,258.2,M,12.4,M,,*44,
$GPGGA,125919,4932.3524,S,07243.0450,W,1,10,0.8,258.3,M,12.4,M,,*47,
$GPGGA,125921,4932.3551,S,07243.0452,W,1,10,0.8,258.0,M,12.4,M,,*4F,
$GPGGA,125923,4932.3579,S,07243.0454,W,1,10,0.8,258.1,M,12.4,M,,*40,
$GPGGA,125925,4932.3606,S,07243.0453,W,1,10,0.8,258.1,M,12.4,M,,*4A,
$GPGGA,125927,4932.3634,S,07243.0452,W,1,10,0.8,258.0,M,12.4,M,,*49,
$GPGGA,125929,4932.3662,S,07243.0448,W,1,10,0.8,257.8,M,12.4,M,,*48,
$GPGGA,125931,4932.3683,S,07243.0444,W,1,10,0.8,257.8,M,12.4,M,,*42,
$GPGGA,125933,4932.3717,S,07243.0440,W,1,10,0.8,257.7,M,12.4,M,,*47,
$GPGGA,125935,4932.3745,S,07243.0436,W,1,10,0.8,257.7,M,12.4,M,,*47,
$GPGGA,125937,4932.3772,S,07243.0432,W,1,10,0.8,257.8,M,12.4,M,,*4A,
$GPGGA,125939,4932.3800,S,07243.0429,W,1,10,0.8,257.7,M,12.4,M,,*4B,
$GPGGA,125941,4932.3827,S,07243.0425,W,1,10,0.8,257.7,M,12.4,M,,*4D,
$GPGGA,125943,4932.3848,S,07243.0421,W,1,10,0.8,257.9,M,12.4,M,,*4C,
$GPGGA,125945,4932.3875,S,07243.0419,W,1,10,0.8,257.8,M,12.4,M,,*4E,
$GPGGA,125947,4932.3908,S,07243.0428,W,1,10,0.8,257.8,M,12.4,M,,*45,
$GPGGA,125949,4932.3936,S,07243.0433,W,1,10,0.8,257.7,M,12.4,M,,*43,
$GPGGA,125951,4932.3963,S,07243.0436,W,1,10,0.8,257.7,M,12.4,M,,*4F,
$GPGGA,125953,4932.3983,S,07243.0439,W,1,10,0.8,257.5,M,12.4,M,,*4E,
$GPGGA,125955,4932.4017,S,07243.0448,W,1,10,0.8,257.5,M,12.4,M,,*4D,
$GPGGA,125957,4932.4045,S,07243.0456,W,1,10,0.8,257.7,M,12.4,M,,*45,
$GPGGA,125959,4932.4072,S,07243.0464,W,1,10,0.8,257.8,M,12.4,M,,*41,
$GPGGA,130001,4932.4100,S,07243.0474,W,1,11,0.7,258.0,M,12.4,M,,*4D,
$GPGGA,130003,4932.4128,S,07243.0486,W,1,11,0.7,258.1,M,12.4,M,,*49,
$GPGGA,130005,4932.4155,S,07243.0492,W,1,11,0.7,258.3,M,12.4,M,,*42,
$GPGGA,130007,4932.4183,S,07243.0494,W,1,11,0.7,258.4,M,12.4,M,,*4A,
$GPGGA,130009,4932.4211,S,07243.0496,W,1,11,0.7,258.4,M,12.4,M,,*4E,
$GPGGA,130011,4932.4239,S,07243.0493,W,1,11,0.7,258.0,M,12.4,M,,*4C,
$GPGGA,130013,4932.4266,S,07243.0490,W,1,11,0.7,258.0,M,12.4,M,,*47,
$GPGGA,130015,4932.4294,S,07243.0485,W,1,11,0.7,257.9,M,12.4,M,,*4E,
$GPGGA,130017,4932.4321,S,07243.0481,W,1,11,0.7,257.8,M,12.4,M,,*46,
$GPGGA,130019,4932.4348,S,07243.0476,W,1,11,0.7,257.8,M,12.4,M,,*4F,
$GPGGA,130021,4932.4375,S,07243.0474,W,1,11,0.7,257.8,M,12.4,M,,*48,
$GPGGA,130023,4932.4403,S,07243.0472,W,1,11,0.7,257.9,M,12.4,M,,*4B,
$GPGGA,130025,4932.4431,S,07243.0472,W,1,11,0.7,257.8,M,12.4,M,,*4D,
$GPGGA,130027,4932.4459,S,07243.0473,W,1,11,0.7,257.9,M,12.4,M,,*41,
$GPGGA,130029,4932.4486,S,07243.0477,W,1,11,0.7,257.9,M,12.4,M,,*49,
$GPGGA,130031,4932.4512,S,07243.0483,W,1,11,0.7,258.0,M,12.4,M,,*41,
$GPGGA,130033,4932.4539,S,07243.0490,W,1,11,0.7,258.1,M,12.4,M,,*49,
$GPGGA,130035,4932.4559,S,07243.0497,W,1,11,0.7,258.2,M,12.4,M,,*4D,
$GPGGA,130037,4932.4585,S,07243.0509,W,1,11,0.7,257.7,M,12.4,M,,*42,
$GPGGA,130039,4932.4618,S,07243.0525,W,1,11,0.7,257.9,M,12.4,M,,*4B,
$GPGGA,130041,4932.4637,S,07243.0534,W,1,11,0.7,258.0,M,12.4,M,,*4F,
$GPGGA,130043,4932.4671,S,07243.0545,W,1,11,0.7,257.8,M,12.4,M,,*4E,
$GPGGA,130045,4932.4698,S,07243.0550,W,1,11,0.7,257.9,M,12.4,M,,*4A,
$GPGGA,130047,4932.4725,S,07243.0553,W,1,11,0.7,258.1,M,12.4,M,,*4B,
$GPGGA,130049,4932.4754,S,07243.0550,W,1,11,0.7,258.2,M,12.4,M,,*43,
$GPGGA,130051,4932.4782,S,07243.0551,W,1,11,0.7,258.0,M,12.4,M,,*42,
$GPGGA,130053,4932.4810,S,07243.0549,W,1,11,0.7,258.1,M,12.4,M,,*4C,
$GPGGA,130055,4932.4838,S,07243.0546,W,1,11,0.7,257.8,M,12.4,M,,*49,
$GPGGA,130057,4932.4859,S,07243.0543,W,1,11,0.7,257.8,M,12.4,M,,*49,
$GPGGA,130059,4932.4893,S,07243.0541,W,1,11,0.7,257.8,M,12.4,M,,*43,
$GPGGA,130101,4932.4922,S,07243.0539,W,1,11,0.7,257.7,M,12.4,M,,*44,
$GPGGA,130103,4932.4950,S,07243.0537,W,1,11,0.7,257.7,M,12.4,M,,*4D,
$GPGGA,130105,4932.4979,S,07243.0538,W,1,11,0.7,258.0,M,12.4,M,,*47,
$GPGGA,130107,4932.5007,S,07243.0538,W,1,11,0.7,257.9,M,12.4,M,,*42,
$GPGGA,130109,4932.5034,S,07243.0539,W,1,11,0.7,257.9,M,12.4,M,,*4D,
$GPGGA,130111,4932.5062,S,07243.0541,W,1,11,0.7,258.0,M,12.4,M,,*4E,
$GPGGA,130113,4932.5089,S,07243.0542,W,1,11,0.7,258.1,M,12.4,M,,*4B,
$GPGGA,130115,4932.5117,S,07243.0545,W,1,11,0.7,258.2,M,12.4,M,,*4F,
$GPGGA,130117,4932.5145,S,07243.0549,W,1,11,0.7,258.1,M,12.4,M,,*45,
$GPGGA,130119,4932.5173,S,07243.0550,W,1,11,0.7,258.2,M,12.4,M,,*45,
$GPGGA,130121,4932.5202,S,07243.0554,W,1,11,0.7,258.2,M,12.4,M,,*4F,
$GPGGA,130123,4932.5230,S,07243.0557,W,1,11,0.7,258.2,M,12.4,M,,*4F,
$GPGGA,130125,4932.5257,S,07243.0562,W,1,11,0.7,258.1,M,12.4,M,,*4D,
$GPGGA,130127,4932.5285,S,07243.0567,W,1,11,0.7,258.1,M,12.4,M,,*45,
$GPGGA,130129,4932.5313,S,07243.0572,W,1,11,0.7,258.0,M,12.4,M,,*40,
$GPGGA,130131,4932.5340,S,07243.0575,W,1,11,0.7,258.0,M,12.4,M,,*48,
$GPGGA,130133,4932.5360,S,07243.0579,W,1,11,0.7,257.9,M,12.4,M,,*42,
$GPGGA,130135,4932.5387,S,07243.0584,W,1,11,0.7,257.7,M,12.4,M,,*41,
$GPGGA,130137,4932.5421,S,07243.0591,W,1,11,0.7,257.6,M,12.4,M,,*4D,
$GPGGA,130139,4932.5450,S,07243.0597,W,1,11,0.7,257.9,M,12.4,M,,*4C,
$GPGGA,130141,4932.5478,S,07243.0601,W,1,11,0.7,257.9,M,12.4,M,,*45,
$GPGGA,130143,4932.5505,S,07243.0604,W,1,11,0.7,257.9,M,12.4,M,,*49,
$GPGGA,130145,4932.5533,S,07243.0608,W,1,11,0.7,258.0,M,12.4,M,,*40,
$GPGGA,130147,4932.5560,S,07243.0611,W,1,11,0.7,258.0,M,12.4,M,,*4C,
$GPGGA,130149,4932.5587,S,07243.0614,W,1,11,0.7,258.1,M,12.4,M,,*4F,
$GPGGA,130151,4932.5608,S,07243.0616,W,1,11,0.7,257.9,M,12.4,M,,*47,
$GPGGA,130153,4932.5642,S,07243.0616,W,1,11,0.7,258.0,M,12.4,M,,*4D,
$GPGGA,130155,4932.5670,S,07243.0616,W,1,11,0.7,258.1,M,12.4,M,,*4B,
$GPGGA,130157,4932.5697,S,07243.0614,W,1,11,0.7,258.1,M,12.4,M,,*42,
$GPGGA,130159,4932.5725,S,07243.0613,W,1,11,0.7,258.1,M,12.4,M,,*43,
$GPGGA,130201,4932.5751,S,07243.0616,W,1,11,0.7,258.0,M,12.4,M,,*4A,
$GPGGA,130203,4932.5779,S,07243.0622,W,1,11,0.7,258.0,M,12.4,M,,*45,
$GPGGA,130205,4932.5807,S,07243.0631,W,1,11,0.7,258.1,M,12.4,M,,*46,
$GPGGA,130207,4932.5834,S,07243.0639,W,1,11,0.7,258.0,M,12.4,M,,*4D,
$GPGGA,130209,4932.5861,S,07243.0647,W,1,11,0.7,258.0,M,12.4,M,,*4A,
$GPGGA,130211,4932.5889,S,07243.0654,W,1,11,0.7,258.0,M,12.4,M,,*47,
$GPGGA,130213,4932.5916,S,07243.0661,W,1,11,0.7,258.3,M,12.4,M,,*47,
$GPGGA,130215,4932.5942,S,07243.0671,W,1,11,0.7,258.2,M,12.4,M,,*40,
$GPGGA,130217,4932.5970,S,07243.0676,W,1,11,0.7,258.2,M,12.4,M,,*44,
$GPGGA,130219,4932.5998,S,07243.0676,W,1,11,0.7,258.2,M,12.4,M,,*4C,
$GPGGA,130221,4932.6027,S,07243.0674,W,1,11,0.7,258.4,M,12.4,M,,*4D,
$GPGGA,130223,4932.6055,S,07243.0675,W,1,11,0.7,258.3,M,12.4,M,,*4C,
$GPGGA,130225,4932.6082,S,07243.0678,W,1,11,0.7,258.3,M,12.4,M,,*4D,
$GPGGA,130227,4932.6108,S,07243.0688,W,1,11,0.7,258.2,M,12.4,M,,*42,
$GPGGA,130229,4932.6135,S,07243.0693,W,1,11,0.7,258.3,M,12.4,M,,*49,
$GPGGA,130231,4932.6163,S,07243.0694,W,1,11,0.7,258.3,M,12.4,M,,*44,
$GPGGA,130233,4932.6191,S,07243.0691,W,1,11,0.7,258.5,M,12.4,M,,*48,
$GPGGA,130235,4932.6219,S,07243.0692,W,1,11,0.7,258.4,M,12.4,M,,*4F,
$GPGGA,130237,4932.6248,S,07243.0693,W,1,11,0.7,258.5,M,12.4,M,,*49,
$GPGGA,130239,4932.6275,S,07243.0694,W,1,11,0.7,258.4,M,12.4,M,,*4F,
$GPGGA,130241,4932.6302,S,07243.0697,W,1,11,0.7,258.3,M,12.4,M,,*45,
$GPGGA,130243,4932.6330,S,07243.0700,W,1,11,0.7,258.2,M,12.4,M,,*48,
$GPGGA,130245,4932.6357,S,07243.0700,W,1,11,0.7,258.4,M,12.4,M,,*49,
$GPGGA,130247,4932.6385,S,07243.0702,W,1,11,0.7,258.3,M,12.4,M,,*41,
$GPGGA,130249,4932.6412,S,07243.0704,W,1,11,0.7,258.3,M,12.4,M,,*40,
$GPGGA,130251,4932.6440,S,07243.0704,W,1,11,0.7,258.2,M,12.4,M,,*4F,
$GPGGA,130253,4932.6468,S,07243.0701,W,1,11,0.7,258.3,M,12.4,M,,*43,
$GPGGA,130255,4932.6497,S,07243.0697,W,1,11,0.7,258.1,M,12.4,M,,*49,
$GPGGA,130257,4932.6525,S,07243.0693,W,1,11,0.7,257.9,M,12.4,M,,*40,
$GPGGA,130259,4932.6553,S,07243.0687,W,1,11,0.7,257.9,M,12.4,M,,*4A,
$GPGGA,130301,4932.6581,S,07243.0681,W,1,11,0.7,258.1,M,12.4,M,,*48,
$GPGGA,130303,4932.6609,S,07243.0678,W,1,11,0.7,257.9,M,12.4,M,,*48,
$GPGGA,130305,4932.6638,S,07243.0669,W,1,11,0.7,258.1,M,12.4,M,,*4B,
$GPGGA,130307,4932.6658,S,07243.0664,W,1,11,0.7,257.9,M,12.4,M,,*45,
$GPGGA,130309,4932.6693,S,07243.0658,W,1,11,0.7,257.7,M,12.4,M,,*4D,
$GPGGA,130311,4932.6721,S,07243.0653,W,1,11,0.7,257.7,M,12.4,M,,*47,
$GPGGA,130313,4932.6748,S,07243.0647,W,1,11,0.7,257.6,M,12.4,M,,*4E,
$GPGGA,130315,4932.6776,S,07243.0641,W,1,11,0.7,257.6,M,12.4,M,,*43,
$GPGGA,130317,4932.6803,S,07243.0637,W,1,11,0.7,257.5,M,12.4,M,,*4E,
$GPGGA,130319,4932.6833,S,07243.0630,W,1,11,0.7,257.6,M,12.4,M,,*47,
$GPGGA,130321,4932.6853,S,07243.0626,W,1,11,0.7,257.6,M,12.4,M,,*4D,
$GPGGA,130323,4932.6888,S,07243.0619,W,1,11,0.7,257.9,M,12.4,M,,*4A,
$GPGGA,130325,4932.6915,S,07243.0616,W,1,11,0.7,257.8,M,12.4,M,,*47,
$GPGGA,130327,4932.6943,S,07243.0610,W,1,11,0.7,257.9,M,12.4,M,,*41,
$GPGGA,130329,4932.6971,S,07243.0608,W,1,11,0.7,257.8,M,12.4,M,,*46,
$GPGGA,130331,4932.6998,S,07243.0605,W,1,11,0.7,257.8,M,12.4,M,,*45,
$GPGGA,130333,4932.7025,S,07243.0604,W,1,11,0.7,257.8,M,12.4,M,,*48,
$GPGGA,130335,4932.7054,S,07243.0603,W,1,11,0.7,258.0,M,12.4,M,,*48,
$GPGGA,130337,4932.7081,S,07243.0606,W,1,11,0.7,258.1,M,12.4,M,,*46,
$GPGGA,130339,4932.7101,S,07243.0608,W,1,11,0.7,258.2,M,12.4,M,,*4C,
$GPGGA,130341,4932.7135,S,07243.0619,W,1,11,0.7,258.2,M,12.4,M,,*44,
$GPGGA,130343,4932.7162,S,07243.0624,W,1,11,0.7,258.1,M,12.4,M,,*49,
$GPGGA,130345,4932.7191,S,07243.0629,W,1,11,0.7,258.4,M,12.4,M,,*4B,
$GPGGA,130347,4932.7218,S,07243.0634,W,1,11,0.7,258.4,M,12.4,M,,*47,
$GPGGA,130349,4932.7245,S,07243.0638,W,1,11,0.7,258.3,M,12.4,M,,*4A,
$GPGGA,130351,4932.7273,S,07243.0641,W,1,11,0.7,258.3,M,12.4,M,,*48,
$GPGGA,130353,4932.7302,S,07243.0643,W,1,11,0.7,258.4,M,12.4,M,,*48,
$GPGGA,130355,4932.7330,S,07243.0642,W,1,11,0.7,258.5,M,12.3,M,,*48,
$GPGGA,130357,4932.7350,S,07243.0643,W,1,11,0.7,258.3,M,12.3,M,,*4B,
$GPGGA,130359,4932.7384,S,07243.0643,W,1,11,0.7,258.3,M,12.3,M,,*4C,
$GPGGA,130401,4932.7410,S,07243.0646,W,1,11,0.7,258.2,M,12.3,M,,*48,
$GPGGA,130403,4932.7439,S,07243.0646,W,1,11,0.7,258.3,M,12.3,M,,*40,
$GPGGA,130405,4932.7466,S,07243.0647,W,1,11,0.7,258.4,M,12.3,M,,*4A,
$GPGGA,130407,4932.7495,S,07243.0645,W,1,11,0.7,258.5,M,12.3,M,,*47,
$GPGGA,130409,4932.7523,S,07243.0643,W,1,11,0.7,258.4,M,12.3,M,,*42,
$GPGGA,130411,4932.7551,S,07243.0640,W,1,11,0.7,258.3,M,12.3,M,,*4A,
$GPGGA,130413,4932.7577,S,07243.0637,W,1,11,0.7,258.4,M,12.3,M,,*4B,
$GPGGA,130415,4932.7605,S,07243.0632,W,1,11,0.7,258.4,M,12.3,M,,*4E,
$GPGGA,130417,4932.7633,S,07243.0629,W,1,11,0.7,258.3,M,12.3,M,,*44,
$GPGGA,130419,4932.7661,S,07243.0624,W,1,11,0.7,258.3,M,12.3,M,,*40,
$GPGGA,130421,4932.7688,S,07243.0621,W,1,11,0.7,258.2,M,12.3,M,,*48,
$GPGGA,130423,4932.7709,S,07243.0618,W,1,11,0.7,258.2,M,12.3,M,,*48,
$GPGGA,130425,4932.7745,S,07243.0615,W,1,11,0.7,258.5,M,12.3,M,,*4C,
$GPGGA,130427,4932.7772,S,07243.0613,W,1,11,0.7,258.6,M,12.3,M,,*4F,
$GPGGA,130429,4932.7800,S,07243.0613,W,1,11,0.7,258.7,M,12.3,M,,*4A,
$GPGGA,130431,4932.7827,S,07243.0614,W,1,11,0.7,258.7,M,12.3,M,,*41,
$GPGGA,130433,4932.7854,S,07243.0614,W,1,11,0.7,258.6,M,12.3,M,,*46,
$GPGGA,130435,4932.7882,S,07243.0618,W,1,11,0.7,258.6,M,12.3,M,,*47,
$GPGGA,130437,4932.7910,S,07243.0620,W,1,11,0.7,258.6,M,12.3,M,,*44,
$GPGGA,130439,4932.7938,S,07243.0624,W,1,11,0.7,258.6,M,12.3,M,,*44,
$GPGGA,130441,4932.7966,S,07243.0628,W,1,11,0.7,258.5,M,12.3,M,,*4F,
$GPGGA,130443,4932.7987,S,07243.0633,W,1,11,0.7,258.4,M,12.3,M,,*49,
$GPGGA,130445,4932.8021,S,07243.0639,W,1,11,0.7,258.4,M,12.3,M,,*4F,
$GPGGA,130447,4932.8049,S,07243.0645,W,1,11,0.7,258.5,M,12.3,M,,*49,
$GPGGA,130449,4932.8076,S,07243.0654,W,1,11,0.7,258.5,M,12.3,M,,*4B,
$GPGGA,130451,4932.8103,S,07243.0664,W,1,11,0.7,258.4,M,12.3,M,,*43,
$GPGGA,130453,4932.8130,S,07243.0672,W,1,11,0.7,258.5,M,12.3,M,,*47,
$GPGGA,130455,4932.8156,S,07243.0683,W,1,11,0.7,258.6,M,12.3,M,,*4C,
$GPGGA,130457,4932.8182,S,07243.0694,W,1,11,0.7,258.7,M,12.3,M,,*40,
$GPGGA,130459,4932.8209,S,07243.0707,W,1,11,0.7,258.6,M,12.3,M,,*44,
$GPGGA,130501,4932.8228,S,07243.0718,W,1,11,0.7,258.5,M,12.3,M,,*46,
$GPGGA,130503,4932.8259,S,07243.0739,W,1,11,0.7,258.5,M,12.3,M,,*41,
$GPGGA,130505,4932.8278,S,07243.0750,W,1,11,0.7,258.4,M,12.3,M,,*4A,
$GPGGA,130507,4932.8310,S,07243.0767,W,1,11,0.7,258.4,M,12.3,M,,*43,
$GPGGA,130509,4932.8336,S,07243.0781,W,1,11,0.7,258.6,M,12.3,M,,*43,
$GPGGA,130511,4932.8361,S,07243.0796,W,1,11,0.7,258.5,M,12.3,M,,*4D,
$GPGGA,130513,4932.8387,S,07243.0809,W,1,11,0.7,258.7,M,12.3,M,,*4C,
$GPGGA,130515,4932.8413,S,07243.0821,W,1,11,0.7,258.9,M,12.3,M,,*44,
$GPGGA,130517,4932.8432,S,07243.0831,W,1,11,0.7,258.9,M,12.3,M,,*44,
$GPGGA,130519,4932.8464,S,07243.0848,W,1,11,0.7,258.9,M,12.3,M,,*47,
$GPGGA,130521,4932.8491,S,07243.0859,W,1,11,0.7,258.8,M,12.3,M,,*47,
$GPGGA,130523,4932.8517,S,07243.0869,W,1,11,0.7,258.8,M,12.3,M,,*49,
$GPGGA,130525,4932.8544,S,07243.0877,W,1,11,0.7,258.9,M,12.3,M,,*47,
$GPGGA,130527,4932.8571,S,07243.0886,W,1,11,0.7,258.8,M,12.3,M,,*4C,
$GPGGA,130529,4932.8599,S,07243.0890,W,1,11,0.7,258.8,M,12.3,M,,*43,
$GPGGA,130531,4932.8626,S,07243.0894,W,1,11,0.7,258.7,M,12.3,M,,*46,
$GPGGA,130533,4932.8654,S,07243.0899,W,1,11,0.7,258.7,M,12.3,M,,*4C,
$GPGGA,130535,4932.8683,S,07243.0901,W,1,11,0.7,258.8,M,12.3,M,,*4F,
$GPGGA,130537,4932.8712,S,07243.0898,W,1,11,0.7,258.9,M,12.3,M,,*44,
$GPGGA,130539,4932.8740,S,07243.0897,W,1,11,0.7,258.7,M,12.3,M,,*4C,
$GPGGA,130541,4932.8767,S,07243.0895,W,1,11,0.7,258.8,M,12.3,M,,*4B,
$GPGGA,130543,4932.8787,S,07243.0894,W,1,11,0.7,258.6,M,12.3,M,,*48,
$GPGGA,130545,4932.8821,S,07243.0886,W,1,11,0.7,258.6,M,12.3,M,,*4E,
$GPGGA,130547,4932.8841,S,07243.0882,W,1,11,0.7,258.4,M,12.3,M,,*4C,
$GPGGA,130549,4932.8876,S,07243.0882,W,1,11,0.7,258.3,M,12.3,M,,*41,
$GPGGA,130551,4932.8902,S,07243.0888,W,1,11,0.7,258.1,M,12.3,M,,*42,
$GPGGA,130553,4932.8929,S,07243.0897,W,1,11,0.7,258.3,M,12.3,M,,*45,
$GPGGA,130555,4932.8955,S,07243.0908,W,1,11,0.7,258.3,M,12.3,M,,*4F,
$GPGGA,130557,4932.8974,S,07243.0917,W,1,11,0.7,258.3,M,12.3,M,,*40,
$GPGGA,130559,4932.9006,S,07243.0933,W,1,11,0.7,258.5,M,12.3,M,,*43,
$GPGGA,130601,4932.9033,S,07243.0945,W,1,11,0.7,258.3,M,12.3,M,,*4C,
$GPGGA,130603,4932.9053,S,07243.0953,W,1,11,0.7,258.4,M,12.3,M,,*48,
$GPGGA,130605,4932.9085,S,07243.0968,W,1,11,0.7,258.4,M,12.3,M,,*4D,
$GPGGA,130607,4932.9112,S,07243.0981,W,1,11,0.7,258.4,M,12.3,M,,*47,
$GPGGA,130609,4932.9139,S,07243.0988,W,1,11,0.7,258.6,M,12.3,M,,*4B,
$GPGGA,130611,4932.9166,S,07243.0991,W,1,11,0.7,258.6,M,12.3,M,,*40,
$GPGGA,130613,4932.9195,S,07243.0992,W,1,11,0.7,258.5,M,12.3,M,,*4E,
$GPGGA,130615,4932.9223,S,07243.0993,W,1,11,0.7,258.5,M,12.3,M,,*47,
$GPGGA,130617,4932.9250,S,07243.0992,W,1,11,0.7,258.5,M,12.3,M,,*40,
$GPGGA,130619,4932.9270,S,07243.0994,W,1,11,0.7,258.6,M,12.3,M,,*49,
$GPGGA,130621,4932.9304,S,07243.0998,W,1,11,0.7,258.6,M,12.3,M,,*4C,
$GPGGA,130623,4932.9332,S,07243.1002,W,1,11,0.7,258.5,M,12.3,M,,*43,
$GPGGA,130625,4932.9358,S,07243.1007,W,1,11,0.7,258.6,M,12.3,M,,*4F,
$GPGGA,130627,4932.9386,S,07243.1013,W,1,11,0.7,258.6,M,12.3,M,,*4B,
$GPGGA,130629,4932.9414,S,07243.1019,W,1,11,0.7,258.6,M,12.3,M,,*43,
$GPGGA,130631,4932.9441,S,07243.1029,W,1,11,0.7,258.6,M,12.3,M,,*49,
$GPGGA,130633,4932.9468,S,07243.1037,W,1,11,0.7,258.6,M,12.3,M,,*4F,
$GPGGA,130635,4932.9495,S,07243.1046,W,1,11,0.7,258.7,M,12.3,M,,*4C,
$GPGGA,130637,4932.9515,S,07243.1053,W,1,11,0.7,258.6,M,12.3,M,,*42,
$GPGGA,130639,4932.9548,S,07243.1064,W,1,11,0.7,258.6,M,12.3,M,,*40,
$GPGGA,130641,4932.9574,S,07243.1072,W,1,11,0.7,258.6,M,12.3,M,,*47,
$GPGGA,130643,4932.9601,S,07243.1078,W,1,11,0.7,258.5,M,12.3,M,,*4D,
$GPGGA,130645,4932.9622,S,07243.1084,W,1,11,0.7,258.4,M,12.3,M,,*48,
$GPGGA,130647,4932.9656,S,07243.1092,W,1,11,0.7,258.6,M,12.3,M,,*4C,
$GPGGA,130651,4932.9710,S,07243.1104,W,1,11,0.7,258.4,M,12.3,M,,*44,
$GPGGA,130655,4932.9765,S,07243.1116,W,1,11,0.7,258.5,M,12.3,M,,*40,
$GPGGA,130657,4932.9793,S,07243.1123,W,1,11,0.7,258.3,M,12.3,M,,*4B,
$GPGGA,130659,4932.9819,S,07243.1129,W,1,11,0.7,258.3,M,12.3,M,,*42,
$GPGGA,130700,4932.9833,S,07243.1131,W,1,11,0.7,258.4,M,12.3,M,,*49,
$GPGGA,130703,4932.9873,S,07243.1139,W,1,11,0.7,258.2,M,12.3,M,,*40,
$GPGGA,130705,4932.9893,S,07243.1143,W,1,11,0.7,258.2,M,12.3,M,,*45,
$GPGGA,130707,4932.9927,S,07243.1153,W,1,11,0.7,258.4,M,12.3,M,,*4E,
$GPGGA,130709,4932.9954,S,07243.1160,W,1,11,0.7,258.2,M,12.3,M,,*42,
$GPGGA,130711,4932.9981,S,07243.1165,W,1,11,0.7,258.3,M,12.3,M,,*47,
$GPGGA,130713,4933.0008,S,07243.1172,W,1,11,0.7,258.1,M,12.3,M,,*41,
$GPGGA,130715,4933.0035,S,07243.1180,W,1,11,0.7,258.1,M,12.3,M,,*44,
$GPGGA,130717,4933.0056,S,07243.1187,W,1,11,0.7,258.3,M,12.3,M,,*46,
$GPGGA,130719,4933.0089,S,07243.1199,W,1,11,0.7,258.4,M,12.3,M,,*42,
$GPGGA,130721,4933.0116,S,07243.1211,W,1,11,0.7,258.2,M,12.3,M,,*4B,
$GPGGA,130723,4933.0143,S,07243.1220,W,1,11,0.7,258.1,M,12.3,M,,*48,
$GPGGA,130725,4933.0170,S,07243.1231,W,1,11,0.7,258.1,M,12.3,M,,*4E,
$GPGGA,130727,4933.0196,S,07243.1242,W,1,11,0.7,258.2,M,12.3,M,,*43,
$GPGGA,130729,4933.0222,S,07243.1253,W,1,11,0.7,258.2,M,12.3,M,,*41,
$GPGGA,130731,4933.0248,S,07243.1264,W,1,11,0.7,258.6,M,12.3,M,,*44,
$GPGGA,130733,4933.0275,S,07243.1275,W,1,11,0.7,258.4,M,12.3,M,,*4A,
$GPGGA,130735,4933.0302,S,07243.1283,W,1,11,0.7,258.4,M,12.3,M,,*44,
$GPGGA,130737,4933.0328,S,07243.1292,W,1,11,0.7,258.6,M,12.3,M,,*4C,
$GPGGA,130739,4933.0349,S,07243.1299,W,1,11,0.7,258.5,M,12.3,M,,*4D,
$GPGGA,130741,4933.0382,S,07243.1311,W,1,11,0.7,258.5,M,12.3,M,,*44,
$GPGGA,130743,4933.0409,S,07243.1322,W,1,11,0.7,258.5,M,12.3,M,,*42,
$GPGGA,130745,4933.0435,S,07243.1334,W,1,11,0.7,258.5,M,12.3,M,,*4C,
$GPGGA,130747,4933.0461,S,07243.1346,W,1,11,0.7,258.5,M,12.3,M,,*4A,
$GPGGA,130749,4933.0489,S,07243.1356,W,1,11,0.7,258.6,M,12.3,M,,*40,
$GPGGA,130751,4933.0515,S,07243.1365,W,1,11,0.7,258.6,M,12.3,M,,*4D,
$GPGGA,130753,4933.0535,S,07243.1372,W,1,11,0.7,258.5,M,12.3,M,,*48,
$GPGGA,130755,4933.0568,S,07243.1384,W,1,11,0.7,258.4,M,12.3,M,,*4E,
$GPGGA,130757,4933.0594,S,07243.1394,W,1,11,0.7,258.2,M,12.3,M,,*48,
$GPGGA,130759,4933.0622,S,07243.1406,W,1,11,0.7,258.2,M,12.3,M,,*44,
$GPGGA,130801,4933.0648,S,07243.1419,W,1,11,0.7,258.1,M,12.3,M,,*47,
$GPGGA,130803,4933.0675,S,07243.1429,W,1,11,0.7,258.2,M,12.3,M,,*4B,
$GPGGA,130805,4933.0701,S,07243.1440,W,1,11,0.7,258.2,M,12.3,M,,*40,
$GPGGA,130807,4933.0727,S,07243.1451,W,1,11,0.7,258.3,M,12.3,M,,*47,
$GPGGA,130809,4933.0747,S,07243.1460,W,1,11,0.7,258.3,M,12.3,M,,*4D,
$GPGGA,130811,4933.0780,S,07243.1474,W,1,11,0.7,258.3,M,12.3,M,,*4A,
$GPGGA,130813,4933.0806,S,07243.1484,W,1,11,0.7,258.3,M,12.3,M,,*46,
$GPGGA,130815,4933.0833,S,07243.1495,W,1,11,0.7,258.2,M,12.3,M,,*47,
$GPGGA,130817,4933.0859,S,07243.1508,W,1,11,0.7,258.1,M,12.3,M,,*4F,
$GPGGA,130819,4933.0885,S,07243.1517,W,1,11,0.7,258.2,M,12.3,M,,*4D,
$GPGGA,130821,4933.0906,S,07243.1525,W,1,11,0.7,258.1,M,12.3,M,,*4E,
$GPGGA,130823,4933.0939,S,07243.1538,W,1,11,0.7,258.1,M,12.3,M,,*4C,
$GPGGA,130825,4933.0965,S,07243.1549,W,1,11,0.7,258.1,M,12.3,M,,*45,
$GPGGA,130827,4933.0992,S,07243.1561,W,1,11,0.7,258.2,M,12.3,M,,*46,
$GPGGA,130829,4933.1019,S,07243.1571,W,1,11,0.7,258.3,M,12.3,M,,*43,
$GPGGA,130831,4933.1045,S,07243.1578,W,1,11,0.7,258.3,M,12.3,M,,*4A,
$GPGGA,130833,4933.1073,S,07243.1584,W,1,11,0.7,258.3,M,12.3,M,,*4E,
$GPGGA,130835,4933.1100,S,07243.1587,W,1,11,0.7,258.3,M,12.3,M,,*4E,
$GPGGA,130837,4933.1128,S,07243.1588,W,1,11,0.7,258.2,M,12.3,M,,*48,
$GPGGA,130839,4933.1156,S,07243.1589,W,1,11,0.7,258.4,M,12.3,M,,*48,
$GPGGA,130841,4933.1184,S,07243.1590,W,1,11,0.7,258.2,M,12.3,M,,*46,
$GPGGA,130843,4933.1212,S,07243.1588,W,1,11,0.7,258.4,M,12.3,M,,*47,
$GPGGA,130845,4933.1240,S,07243.1590,W,1,11,0.7,258.4,M,12.3,M,,*4F,
$GPGGA,130847,4933.1268,S,07243.1588,W,1,11,0.7,258.6,M,12.3,M,,*4C,
$GPGGA,130849,4933.1295,S,07243.1588,W,1,11,0.7,258.3,M,12.3,M,,*45,
$GPGGA,130851,4933.1321,S,07243.1589,W,1,11,0.7,258.1,M,12.3,M,,*41,
$GPGGA,130853,4933.1349,S,07243.1593,W,1,11,0.7,258.2,M,12.3,M,,*45,
$GPGGA,130855,4933.1377,S,07243.1600,W,1,11,0.7,258.1,M,12.3,M,,*44,
$GPGGA,130857,4933.1397,S,07243.1605,W,1,11,0.7,258.1,M,12.3,M,,*4D,
$GPGGA,130859,4933.1431,S,07243.1613,W,1,11,0.7,258.1,M,12.3,M,,*4F,
$GPGGA,130901,4933.1458,S,07243.1622,W,1,11,0.7,258.0,M,12.3,M,,*4F,
$GPGGA,130903,4933.1484,S,07243.1632,W,1,11,0.7,257.8,M,12.3,M,,*4A,
$GPGGA,130905,4933.1511,S,07243.1645,W,1,11,0.7,257.8,M,12.3,M,,*41,
$GPGGA,130907,4933.1537,S,07243.1658,W,1,11,0.7,258.0,M,12.3,M,,*4C,
$GPGGA,130909,4933.1563,S,07243.1669,W,1,11,0.7,258.0,M,12.3,M,,*41,
$GPGGA,130911,4933.1589,S,07243.1679,W,1,11,0.7,258.0,M,12.3,M,,*4D,
$GPGGA,130913,4933.1616,S,07243.1692,W,1,11,0.7,258.0,M,12.3,M,,*4F,
$GPGGA,130915,4933.1643,S,07243.1699,W,1,11,0.7,258.0,M,12.3,M,,*42,
$GPGGA,130917,4933.1670,S,07243.1705,W,1,11,0.7,257.9,M,12.3,M,,*42,
$GPGGA,130919,4933.1697,S,07243.1708,W,1,11,0.7,258.0,M,12.3,M,,*4E,
$GPGGA,130921,4933.1724,S,07243.1709,W,1,11,0.7,257.9,M,12.3,M,,*4B,
$GPGGA,130923,4933.1752,S,07243.1712,W,1,11,0.7,257.9,M,12.3,M,,*42,
$GPGGA,130925,4933.1779,S,07243.1716,W,1,11,0.7,257.8,M,12.3,M,,*48,
$GPGGA,130927,4933.1808,S,07243.1717,W,1,11,0.7,257.9,M,12.3,M,,*43,
$GPGGA,130929,4933.1837,S,07243.1719,W,1,11,0.7,257.8,M,12.3,M,,*4E,
$GPGGA,130931,4933.1864,S,07243.1721,W,1,11,0.7,257.9,M,12.3,M,,*4B,
$GPGGA,130933,4933.1893,S,07243.1723,W,1,11,0.7,257.7,M,12.3,M,,*4D,
$GPGGA,130935,4933.1921,S,07243.1725,W,1,11,0.7,257.8,M,12.3,M,,*4A,
$GPGGA,130937,4933.1948,S,07243.1727,W,1,11,0.7,257.7,M,12.3,M,,*4A,
$GPGGA,130939,4933.1977,S,07243.1728,W,1,11,0.7,257.7,M,12.3,M,,*47,
$GPGGA,130941,4933.2003,S,07243.1730,W,1,11,0.7,257.8,M,12.3,M,,*47,
$GPGGA,130943,4933.2030,S,07243.1733,W,1,11,0.7,257.6,M,12.3,M,,*48,
$GPGGA,130945,4933.2051,S,07243.1737,W,1,11,0.7,257.5,M,12.3,M,,*4E,
$GPGGA,130947,4933.2086,S,07243.1748,W,1,11,0.7,257.7,M,12.3,M,,*4C,
$GPGGA,130949,4933.2112,S,07243.1761,W,1,11,0.7,257.5,M,12.3,M,,*47,
$GPGGA,130951,4933.2138,S,07243.1774,W,1,11,0.7,257.7,M,12.3,M,,*40,
$GPGGA,130953,4933.2163,S,07243.1789,W,1,11,0.7,257.8,M,12.3,M,,*41,
$GPGGA,130955,4933.2189,S,07243.1801,W,1,11,0.7,257.8,M,12.3,M,,*4C,
$GPGGA,130957,4933.2216,S,07243.1811,W,1,11,0.7,257.8,M,12.3,M,,*4A,
$GPGGA,130959,4933.2242,S,07243.1819,W,1,11,0.7,257.9,M,12.3,M,,*4C,
$GPGGA,131001,4933.2270,S,07243.1826,W,1,11,0.7,258.1,M,12.3,M,,*43,
$GPGGA,131003,4933.2297,S,07243.1832,W,1,11,0.7,258.1,M,12.3,M,,*4D,
$GPGGA,131005,4933.2325,S,07243.1839,W,1,11,0.7,257.9,M,12.3,M,,*4F,
$GPGGA,131007,4933.2352,S,07243.1842,W,1,11,0.7,257.8,M,12.3,M,,*40,
$GPGGA,131009,4933.2371,S,07243.1848,W,1,11,0.7,257.8,M,12.3,M,,*45,
$GPGGA,131011,4933.2397,S,07243.1858,W,1,11,0.7,257.9,M,12.3,M,,*44,
$GPGGA,131013,4933.2429,S,07243.1874,W,1,11,0.7,258.0,M,12.3,M,,*4C,
$GPGGA,131015,4933.2454,S,07243.1891,W,1,11,0.7,258.0,M,12.3,M,,*4B,
$GPGGA,131017,4933.2479,S,07243.1910,W,1,11,0.7,258.0,M,12.3,M,,*4E,
$GPGGA,131019,4933.2504,S,07243.1923,W,1,11,0.7,258.0,M,12.3,M,,*4B,
$GPGGA,131021,4933.2532,S,07243.1926,W,1,11,0.7,257.9,M,12.3,M,,*46,
$GPGGA,131023,4933.2559,S,07243.1921,W,1,11,0.7,257.8,M,12.3,M,,*4F,
$GPGGA,131025,4933.2588,S,07243.1912,W,1,11,0.7,257.7,M,12.3,M,,*4A,
$GPGGA,131027,4933.2617,S,07243.1901,W,1,11,0.7,257.8,M,12.3,M,,*40,
$GPGGA,131029,4933.2645,S,07243.1885,W,1,11,0.7,257.6,M,12.3,M,,*4A,
$GPGGA,131031,4933.2670,S,07243.1859,W,1,11,0.7,257.5,M,12.3,M,,*47,
$GPGGA,131033,4933.2692,S,07243.1822,W,1,11,0.7,257.5,M,12.3,M,,*45,
$GPGGA,131035,4933.2706,S,07243.1780,W,1,11,0.7,257.5,M,12.3,M,,*48,
$GPGGA,131037,4933.2710,S,07243.1733,W,1,11,0.7,257.7,M,12.3,M,,*47,
$GPGGA,131039,4933.2701,S,07243.1685,W,1,11,0.7,257.7,M,12.3,M,,*45,
$GPGGA,131041,4933.2687,S,07243.1645,W,1,11,0.7,257.6,M,12.3,M,,*48,
$GPGGA,131043,4933.2664,S,07243.1612,W,1,11,0.7,257.7,M,12.3,M,,*44,
$GPGGA,131045,4933.2636,S,07243.1593,W,1,11,0.7,257.8,M,12.3,M,,*40,
$GPGGA,131047,4933.2608,S,07243.1582,W,1,11,0.7,257.9,M,12.3,M,,*4E,
$GPGGA,131049,4933.2579,S,07243.1574,W,1,11,0.7,257.8,M,12.3,M,,*4D,
$GPGGA,131051,4933.2551,S,07243.1570,W,1,11,0.7,257.8,M,12.3,M,,*4A,
